[
    {
        "name":"Edmonton International Airport",
        "city":"Edmonton",
        "iata":"YEG",
        "latitude":53.3097000122,
        "region":"Canada",
        "longitude":-113.580001831
    },
    {
        "name":"Halifax \/ Stanfield International Airport",
        "city":"Halifax",
        "iata":"YHZ",
        "latitude":44.8807983398,
        "region":"Canada",
        "longitude":-63.5085983276
    },
    {
        "name":"Montreal International (Mirabel) Airport",
        "city":"Montreal",
        "iata":"YMX",
        "latitude":45.6795005798,
        "region":"Canada",
        "longitude":-74.0386962891
    },
    {
        "name":"Ottawa Macdonald-Cartier International Airport",
        "city":"Ottawa",
        "iata":"YOW",
        "latitude":45.3224983215,
        "region":"Canada",
        "longitude":-75.6691970825
    },
    {
        "name":"Greater Moncton International Airport",
        "city":"Moncton",
        "iata":"YQM",
        "latitude":46.1122016907,
        "region":"Canada",
        "longitude":-64.6785964966
    },
    {
        "name":"Vancouver International Airport",
        "city":"Vancouver",
        "iata":"YVR",
        "latitude":49.193901062,
        "region":"Canada",
        "longitude":-123.183998108
    },
    {
        "name":"Winnipeg \/ James Armstrong Richardson International Airport",
        "city":"Winnipeg",
        "iata":"YWG",
        "latitude":49.9099998474,
        "region":"Canada",
        "longitude":-97.2398986816
    },
    {
        "name":"Calgary International Airport",
        "city":"Calgary",
        "iata":"YYC",
        "latitude":51.113899231,
        "region":"Canada",
        "longitude":-114.019996643
    },
    {
        "name":"Lester B. Pearson International Airport",
        "city":"Toronto",
        "iata":"YYZ",
        "latitude":43.6772003174,
        "region":"Canada",
        "longitude":-79.6305999756
    },
    {
        "name":"Li\u00e8ge Airport",
        "city":"Liege",
        "iata":"LGG",
        "latitude":50.6374015808,
        "region":"EMEA",
        "longitude":5.4432201385
    },
    {
        "name":"Berlin-Sch\u00f6nefeld International Airport",
        "city":"Berlin",
        "iata":"SXF",
        "latitude":52.3800010681,
        "region":"EMEA",
        "longitude":13.5225000381
    },
    {
        "name":"Erfurt Airport",
        "city":"Erfurt",
        "iata":"ERF",
        "latitude":50.979801178,
        "region":"EMEA",
        "longitude":10.9581003189
    },
    {
        "name":"Cologne Bonn Airport",
        "city":"Cologne",
        "iata":"CGN",
        "latitude":50.8658981323,
        "region":"EMEA",
        "longitude":7.1427397728
    },
    {
        "name":"Munich International Airport",
        "city":"Munich",
        "iata":"MUC",
        "latitude":48.3538017273,
        "region":"EMEA",
        "longitude":11.7861003876
    },
    {
        "name":"Hannover Airport",
        "city":"Hannover",
        "iata":"HAJ",
        "latitude":52.461101532,
        "region":"EMEA",
        "longitude":9.6850795746
    },
    {
        "name":"Helsinki Vantaa Airport",
        "city":"Helsinki",
        "iata":"HEL",
        "latitude":60.317199707,
        "region":"EMEA",
        "longitude":24.963300705
    },
    {
        "name":"Birmingham International Airport",
        "city":"Birmingham",
        "iata":"BHX",
        "latitude":52.4538993835,
        "region":"EMEA",
        "longitude":-1.7480299473
    },
    {
        "name":"East Midlands Airport",
        "city":"East Midlands",
        "iata":"EMA",
        "latitude":52.8311004639,
        "region":"EMEA",
        "longitude":-1.3280600309
    },
    {
        "name":"London Stansted Airport",
        "city":"London",
        "iata":"STN",
        "latitude":51.8849983215,
        "region":"EMEA",
        "longitude":0.2349999994
    },
    {
        "name":"Amsterdam Airport Schiphol",
        "city":"Amsterdam",
        "iata":"AMS",
        "latitude":52.3086013794,
        "region":"EMEA",
        "longitude":4.7638897896
    },
    {
        "name":"Dublin Airport",
        "city":"Dublin",
        "iata":"DUB",
        "latitude":53.4212989807,
        "region":"EMEA",
        "longitude":-6.270070076
    },
    {
        "name":"Copenhagen Kastrup Airport",
        "city":"Copenhagen",
        "iata":"CPH",
        "latitude":55.6179008484,
        "region":"EMEA",
        "longitude":12.6560001373
    },
    {
        "name":"Trondheim Airport V\u00e6rnes",
        "city":"Trondheim",
        "iata":"TRD",
        "latitude":63.4578018,
        "region":"EMEA",
        "longitude":10.9239998
    },
    {
        "name":"Katowice International Airport",
        "city":"Katowice",
        "iata":"KTW",
        "latitude":50.4743,
        "region":"EMEA",
        "longitude":19.08
    },
    {
        "name":"Warsaw Chopin Airport",
        "city":"Warsaw",
        "iata":"WAW",
        "latitude":52.1656990051,
        "region":"EMEA",
        "longitude":20.9671001434
    },
    {
        "name":"Gothenburg-Landvetter Airport",
        "city":"Gothenborg",
        "iata":"GOT",
        "latitude":57.6627998352,
        "region":"EMEA",
        "longitude":12.279800415
    },
    {
        "name":"Malm\u00f6 Sturup Airport",
        "city":"Malmoe",
        "iata":"MMX",
        "latitude":55.536305364,
        "region":"EMEA",
        "longitude":13.3761978149
    },
    {
        "name":"Stockholm-Arlanda Airport",
        "city":"Stockholm",
        "iata":"ARN",
        "latitude":59.6519012451,
        "region":"EMEA",
        "longitude":17.9186000824
    },
    {
        "name":"OR Tambo International Airport",
        "city":"Johannesburg",
        "iata":"JNB",
        "latitude":-26.1392,
        "region":"Africa",
        "longitude":28.246
    },
    {
        "name":"Sofia Airport",
        "city":"Sofia",
        "iata":"SOF",
        "latitude":42.6966934204,
        "region":"EMEA",
        "longitude":23.4114360809
    },
    {
        "name":"Barcelona International Airport",
        "city":"Barcelona",
        "iata":"BCN",
        "latitude":41.2971000671,
        "region":"EMEA",
        "longitude":2.0784599781
    },
    {
        "name":"Adolfo Su\u00e1rez Madrid\u2013Barajas Airport",
        "city":"Madrid",
        "iata":"MAD",
        "latitude":40.471926,
        "region":"EMEA",
        "longitude":-3.56264
    },
    {
        "name":"Vitoria\/Foronda Airport",
        "city":"Vitoria",
        "iata":"VIT",
        "latitude":42.8828010559,
        "region":"EMEA",
        "longitude":-2.7244699001
    },
    {
        "name":"Toulouse-Blagnac Airport",
        "city":"Toulouse",
        "iata":"TLS",
        "latitude":43.629101,
        "region":"EMEA",
        "longitude":1.36382
    },
    {
        "name":"Lyon Saint-Exup\u00e9ry Airport",
        "city":"Lyon",
        "iata":"LYS",
        "latitude":45.7255556,
        "region":"EMEA",
        "longitude":5.0811111
    },
    {
        "name":"Charles de Gaulle International Airport",
        "city":"Paris",
        "iata":"CDG",
        "latitude":49.0127983093,
        "region":"EMEA",
        "longitude":2.5499999523
    },
    {
        "name":"EuroAirport Basel-Mulhouse-Freiburg Airport",
        "city":"Mulhouse",
        "iata":"BSL",
        "latitude":47.59,
        "region":"EMEA",
        "longitude":7.5291667
    },
    {
        "name":"Budapest Ferenc Liszt International Airport",
        "city":"Budapest",
        "iata":"BUD",
        "latitude":47.4369010925,
        "region":"EMEA",
        "longitude":19.2555999756
    },
    {
        "name":"Sigonella Navy Air Base",
        "city":"Sigonella",
        "iata":"NSY",
        "latitude":37.401699,
        "region":"EMEA",
        "longitude":14.9224
    },
    {
        "name":"Malpensa International Airport",
        "city":"Milano",
        "iata":"MXP",
        "latitude":45.6306,
        "region":"EMEA",
        "longitude":8.72811
    },
    {
        "name":"Bologna Guglielmo Marconi Airport",
        "city":"Bologna",
        "iata":"BLQ",
        "latitude":44.5354,
        "region":"EMEA",
        "longitude":11.2887
    },
    {
        "name":"Venice Marco Polo Airport",
        "city":"Venice",
        "iata":"VCE",
        "latitude":45.505299,
        "region":"EMEA",
        "longitude":12.3519
    },
    {
        "name":"Ciampino\u2013G. B. Pastine International Airport",
        "city":"Rome",
        "iata":"CIA",
        "latitude":41.7994,
        "region":"EMEA",
        "longitude":12.5949
    },
    {
        "name":"Ljubljana Jo\u017ee Pu\u010dnik Airport",
        "city":"Ljubljana",
        "iata":"LJU",
        "latitude":46.223701,
        "region":"EMEA",
        "longitude":14.4576
    },
    {
        "name":"Ben Gurion International Airport",
        "city":"Tel-aviv",
        "iata":"TLV",
        "latitude":32.0113983154,
        "region":"EMEA",
        "longitude":34.8866996765
    },
    {
        "name":"Vienna International Airport",
        "city":"Vienna",
        "iata":"VIE",
        "latitude":48.1102981567,
        "region":"EMEA",
        "longitude":16.5697002411
    },
    {
        "name":"Francisco de S\u00e1 Carneiro Airport",
        "city":"Porto",
        "iata":"OPO",
        "latitude":41.2481002808,
        "region":"EMEA",
        "longitude":-8.6813898086
    },
    {
        "name":"Henri Coand\u0103 International Airport",
        "city":"Bucharest",
        "iata":"OTP",
        "latitude":44.5711111,
        "region":"EMEA",
        "longitude":26.085
    },
    {
        "name":"Atat\u00fcrk International Airport",
        "city":"Istanbul",
        "iata":"IST",
        "latitude":40.9768981934,
        "region":"EMEA",
        "longitude":28.8145999908
    },
    {
        "name":"Las Am\u00e9ricas International Airport",
        "city":"Santo Domingo",
        "iata":"SDQ",
        "latitude":18.4297008514,
        "region":"Central & South America",
        "longitude":-69.6688995361
    },
    {
        "name":"Licenciado Benito Juarez International Airport",
        "city":"Mexico City",
        "iata":"MEX",
        "latitude":19.4363,
        "region":"Central & South America",
        "longitude":-99.072098
    },
    {
        "name":"General Mariano Escobedo International Airport",
        "city":"Monterrey",
        "iata":"MTY",
        "latitude":25.7784996033,
        "region":"Central & South America",
        "longitude":-100.107002258
    },
    {
        "name":"Quer\u00e9taro Intercontinental Airport",
        "city":"Queretaro",
        "iata":"QRO",
        "latitude":20.6173000336,
        "region":"Central & South America",
        "longitude":-100.185997009
    },
    {
        "name":"General Abelardo L. Rodr\u00edguez International Airport",
        "city":"Tijuana",
        "iata":"TIJ",
        "latitude":32.5410995483,
        "region":"Central & South America",
        "longitude":-116.9700012207
    },
    {
        "name":"Tocumen International Airport",
        "city":"Panama City",
        "iata":"PTY",
        "latitude":9.0713596344,
        "region":"Central & South America",
        "longitude":-79.3834991455
    },
    {
        "name":"Juan Santamaria International Airport",
        "city":"San Jose",
        "iata":"SJO",
        "latitude":9.9938602448,
        "region":"Central & South America",
        "longitude":-84.2088012695
    },
    {
        "name":"El Salvador International Airport",
        "city":"San Salvador",
        "iata":"SAL",
        "latitude":13.4409,
        "region":"Central & South America",
        "longitude":-89.055702
    },
    {
        "name":"Auckland International Airport",
        "city":"Auckland",
        "iata":"AKL",
        "latitude":-37.0080986023,
        "region":"APAC",
        "longitude":174.792007446
    },
    {
        "name":"Bahrain International Airport",
        "city":"Bahrain",
        "iata":"BAH",
        "latitude":26.2707996368,
        "region":"EMEA",
        "longitude":50.6335983276
    },
    {
        "name":"Dubai International Airport",
        "city":"Dubai",
        "iata":"DXB",
        "latitude":25.2527999878,
        "region":"EMEA",
        "longitude":55.3643989563
    },
    {
        "name":"Taiwan Taoyuan International Airport",
        "city":"Taipei",
        "iata":"TPE",
        "latitude":25.0777,
        "region":"APAC",
        "longitude":121.233002
    },
    {
        "name":"Narita International Airport",
        "city":"Tokyo",
        "iata":"NRT",
        "latitude":35.7647018433,
        "region":"APAC",
        "longitude":140.386001587
    },
    {
        "name":"Ninoy Aquino International Airport",
        "city":"Manila",
        "iata":"MNL",
        "latitude":14.5086,
        "region":"APAC",
        "longitude":121.019997
    },
    {
        "name":"Tancredo Neves International Airport",
        "city":"Belo Horizonte",
        "iata":"CNF",
        "latitude":-19.6244430542,
        "region":"Central & South America",
        "longitude":-43.9719429016
    },
    {
        "name":"Viracopos International Airport",
        "city":"Campinas",
        "iata":"VCP",
        "latitude":-23.0074005127,
        "region":"Central & South America",
        "longitude":-47.1344985962
    },
    {
        "name":"Mariscal Sucre International Airport",
        "city":"Quito",
        "iata":"UIO",
        "latitude":-0.1291666667,
        "region":"Central & South America",
        "longitude":-78.3575
    },
    {
        "name":"El Dorado International Airport",
        "city":"Bogota",
        "iata":"BOG",
        "latitude":4.70159,
        "region":"Central & South America",
        "longitude":-74.1469
    },
    {
        "name":"Jose Maria C\u00f3rdova International Airport",
        "city":"Rio Negro",
        "iata":"MDE",
        "latitude":6.16454,
        "region":"Central & South America",
        "longitude":-75.4231
    },
    {
        "name":"Rafael Hernandez Airport",
        "city":"Aguadilla",
        "iata":"BQN",
        "latitude":18.4948997498,
        "region":"Central & South America",
        "longitude":-67.1294021606
    },
    {
        "name":"Luis Munoz Marin International Airport",
        "city":"San Juan",
        "iata":"SJU",
        "latitude":18.4393997192,
        "region":"Central & South America",
        "longitude":-66.0018005371
    },
    {
        "name":"Chhatrapati Shivaji International Airport",
        "city":"Mumbai",
        "iata":"BOM",
        "latitude":19.0886993408,
        "region":"APAC",
        "longitude":72.8678970337
    },
    {
        "name":"Indira Gandhi International Airport",
        "city":"Delhi",
        "iata":"DEL",
        "latitude":28.5664997101,
        "region":"APAC",
        "longitude":77.1031036377
    },
    {
        "name":"Noi Bai International Airport",
        "city":"Hanoi",
        "iata":"HAN",
        "latitude":21.221200943,
        "region":"APAC",
        "longitude":105.8069992065
    },
    {
        "name":"Tan Son Nhat International Airport",
        "city":"Ho Chi Minh City",
        "iata":"SGN",
        "latitude":10.8187999725,
        "region":"APAC",
        "longitude":106.652000427
    },
    {
        "name":"Kuala Lumpur International Airport",
        "city":"Kuala Lumpur",
        "iata":"KUL",
        "latitude":2.745579958,
        "region":"APAC",
        "longitude":101.7099990845
    },
    {
        "name":"Penang International Airport",
        "city":"Penang",
        "iata":"PEN",
        "latitude":5.2971401215,
        "region":"APAC",
        "longitude":100.2770004272
    },
    {
        "name":"Singapore Changi Airport",
        "city":"Singapore",
        "iata":"SIN",
        "latitude":1.35019,
        "region":"APAC",
        "longitude":103.994003
    },
    {
        "name":"Sydney Kingsford Smith International Airport",
        "city":"Sydney",
        "iata":"SYD",
        "latitude":-33.9460983276,
        "region":"APAC",
        "longitude":151.1770019531
    },
    {
        "name":"Beijing Capital International Airport",
        "city":"Beijing",
        "iata":"PEK",
        "latitude":40.0801010132,
        "region":"APAC",
        "longitude":116.5849990845
    },
    {
        "name":"Guangzhou Baiyun International Airport",
        "city":"Guangzhou",
        "iata":"CAN",
        "latitude":23.3924007416,
        "region":"APAC",
        "longitude":113.2990036011
    },
    {
        "name":"Shanghai Pudong International Airport",
        "city":"Shanghai",
        "iata":"PVG",
        "latitude":31.1434001923,
        "region":"APAC",
        "longitude":121.8050003052
    },
    {
        "name":"General Edward Lawrence Logan International Airport",
        "city":"Boston",
        "iata":"BOS",
        "latitude":42.36429977,
        "region":"US Domestic",
        "longitude":-71.00520325
    },
    {
        "name":"Mobile Downtown Airport",
        "city":"Mobile",
        "iata":"BFM",
        "latitude":30.6268005371,
        "region":"US Domestic",
        "longitude":-88.0680999756
    },
    {
        "name":"Metropolitan Oakland International Airport",
        "city":"Oakland",
        "iata":"OAK",
        "latitude":37.7212982178,
        "region":"US Domestic",
        "longitude":-122.2210006714
    },
    {
        "name":"Eppley Airfield",
        "city":"Omaha",
        "iata":"OMA",
        "latitude":41.3031997681,
        "region":"US Domestic",
        "longitude":-95.8940963745
    },
    {
        "name":"Wichita Mid Continent Airport",
        "city":"Wichita",
        "iata":"ICT",
        "latitude":37.6498985291,
        "region":"US Domestic",
        "longitude":-97.4330978394
    },
    {
        "name":"Kansas City International Airport",
        "city":"Kansas City",
        "iata":"MCI",
        "latitude":39.2976,
        "region":"US Domestic",
        "longitude":-94.713898
    },
    {
        "name":"Dane County Regional Truax Field",
        "city":"Madison",
        "iata":"MSN",
        "latitude":43.1399002075,
        "region":"US Domestic",
        "longitude":-89.3375015259
    },
    {
        "name":"Phoenix Sky Harbor International Airport",
        "city":"Phoenix",
        "iata":"PHX",
        "latitude":33.434299469,
        "region":"US Domestic",
        "longitude":-112.0120010376
    },
    {
        "name":"Bangor International Airport",
        "city":"Bangor",
        "iata":"BGR",
        "latitude":44.8073997498,
        "region":"US Domestic",
        "longitude":-68.8281021118
    },
    {
        "name":"Spokane International Airport",
        "city":"Spokane",
        "iata":"GEG",
        "latitude":47.6198997498,
        "region":"US Domestic",
        "longitude":-117.533996582
    },
    {
        "name":"San Francisco International Airport",
        "city":"San Francisco",
        "iata":"SFO",
        "latitude":37.6189994812,
        "region":"US Domestic",
        "longitude":-122.375
    },
    {
        "name":"Memphis International Airport",
        "city":"Memphis",
        "iata":"MEM",
        "latitude":35.0424003601,
        "region":"US Domestic",
        "longitude":-89.9766998291
    },
    {
        "name":"Pope Field",
        "city":"Fort Bragg",
        "iata":"POB",
        "latitude":35.1708984375,
        "region":"US Domestic",
        "longitude":-79.014503479
    },
    {
        "name":"Los Angeles International Airport",
        "city":"Los Angeles",
        "iata":"LAX",
        "latitude":33.94250107,
        "region":"US Domestic",
        "longitude":-118.4079971
    },
    {
        "name":"Cleveland Hopkins International Airport",
        "city":"Cleveland",
        "iata":"CLE",
        "latitude":41.4117012024,
        "region":"US Domestic",
        "longitude":-81.8498001099
    },
    {
        "name":"Dover Air Force Base",
        "city":"Dover",
        "iata":"DOV",
        "latitude":39.12950134,
        "region":"US Domestic",
        "longitude":-75.46600342
    },
    {
        "name":"Cincinnati Northern Kentucky International Airport",
        "city":"Cincinnati",
        "iata":"CVG",
        "latitude":39.0488014221,
        "region":"US Domestic",
        "longitude":-84.6678009033
    },
    {
        "name":"Lafayette Regional Airport",
        "city":"Lafayette",
        "iata":"LFT",
        "latitude":30.20529938,
        "region":"US Domestic",
        "longitude":-91.98760223
    },
    {
        "name":"Newark Liberty International Airport",
        "city":"Newark",
        "iata":"EWR",
        "latitude":40.6925010681,
        "region":"US Domestic",
        "longitude":-74.1687011719
    },
    {
        "name":"Boise Air Terminal\/Gowen field",
        "city":"Boise",
        "iata":"BOI",
        "latitude":43.56439972,
        "region":"US Domestic",
        "longitude":-116.2229996
    },
    {
        "name":"Miramar Marine Corps Air Station - Mitscher Field",
        "city":"Miramar",
        "iata":"NKX",
        "latitude":32.86840057,
        "region":"US Domestic",
        "longitude":-117.1429977
    },
    {
        "name":"Fort Lauderdale Hollywood International Airport",
        "city":"Fort Lauderdale",
        "iata":"FLL",
        "latitude":26.072599411,
        "region":"US Domestic",
        "longitude":-80.1527023315
    },
    {
        "name":"Salt Lake City International Airport",
        "city":"Salt Lake City",
        "iata":"SLC",
        "latitude":40.7883987427,
        "region":"US Domestic",
        "longitude":-111.9779968262
    },
    {
        "name":"Harrisburg International Airport",
        "city":"Harrisburg",
        "iata":"MDT",
        "latitude":40.1935005188,
        "region":"US Domestic",
        "longitude":-76.7633972168
    },
    {
        "name":"George Bush Intercontinental Houston Airport",
        "city":"Houston",
        "iata":"IAH",
        "latitude":29.9843997955,
        "region":"US Domestic",
        "longitude":-95.3414001465
    },
    {
        "name":"El Paso International Airport",
        "city":"El Paso",
        "iata":"ELP",
        "latitude":31.80719948,
        "region":"US Domestic",
        "longitude":-106.3779984
    },
    {
        "name":"Valley International Airport",
        "city":"Harlingen",
        "iata":"HRL",
        "latitude":26.2285003662,
        "region":"US Domestic",
        "longitude":-97.6544036865
    },
    {
        "name":"Columbia Metropolitan Airport",
        "city":"Columbia",
        "iata":"CAE",
        "latitude":33.9388008118,
        "region":"US Domestic",
        "longitude":-81.1194992065
    },
    {
        "name":"Pittsburgh International Airport",
        "city":"Pittsburgh",
        "iata":"PIT",
        "latitude":40.49150085,
        "region":"US Domestic",
        "longitude":-80.23290253
    },
    {
        "name":"Miami International Airport",
        "city":"Miami",
        "iata":"MIA",
        "latitude":25.7931995392,
        "region":"US Domestic",
        "longitude":-80.2906036377
    },
    {
        "name":"Seattle Tacoma International Airport",
        "city":"Seattle",
        "iata":"SEA",
        "latitude":47.4490013123,
        "region":"US Domestic",
        "longitude":-122.3089981079
    },
    {
        "name":"Lovell Field",
        "city":"Chattanooga",
        "iata":"CHA",
        "latitude":35.0353012085,
        "region":"US Domestic",
        "longitude":-85.2037963867
    },
    {
        "name":"Indianapolis International Airport",
        "city":"Indianapolis",
        "iata":"IND",
        "latitude":39.7173,
        "region":"US Domestic",
        "longitude":-86.294403
    },
    {
        "name":"Richmond International Airport",
        "city":"Richmond",
        "iata":"RIC",
        "latitude":37.5051994324,
        "region":"US Domestic",
        "longitude":-77.3197021484
    },
    {
        "name":"Norfolk International Airport",
        "city":"Norfolk",
        "iata":"ORF",
        "latitude":36.8945999146,
        "region":"US Domestic",
        "longitude":-76.2012023926
    },
    {
        "name":"Savannah Hilton Head International Airport",
        "city":"Savannah",
        "iata":"SAV",
        "latitude":32.12760162,
        "region":"US Domestic",
        "longitude":-81.20210266
    },
    {
        "name":"San Antonio International Airport",
        "city":"San Antonio",
        "iata":"SAT",
        "latitude":29.533700943,
        "region":"US Domestic",
        "longitude":-98.4698028564
    },
    {
        "name":"Greater Rochester International Airport",
        "city":"Rochester",
        "iata":"ROC",
        "latitude":43.1189002991,
        "region":"US Domestic",
        "longitude":-77.6724014282
    },
    {
        "name":"Raleigh Durham International Airport",
        "city":"Raleigh-durham",
        "iata":"RDU",
        "latitude":35.8776016235,
        "region":"US Domestic",
        "longitude":-78.7874984741
    },
    {
        "name":"James M Cox Dayton International Airport",
        "city":"Dayton",
        "iata":"DAY",
        "latitude":39.9024009705,
        "region":"US Domestic",
        "longitude":-84.2193984985
    },
    {
        "name":"Kenai Municipal Airport",
        "city":"Kenai",
        "iata":"ENA",
        "latitude":60.5731010437,
        "region":"US Domestic",
        "longitude":-151.2449951172
    },
    {
        "name":"Tucson International Airport",
        "city":"Tucson",
        "iata":"TUS",
        "latitude":32.1161003113,
        "region":"US Domestic",
        "longitude":-110.9410018921
    },
    {
        "name":"Theodore Francis Green State Airport",
        "city":"Providence",
        "iata":"PVD",
        "latitude":41.7326011658,
        "region":"US Domestic",
        "longitude":-71.4204025269
    },
    {
        "name":"Bob Hope Airport",
        "city":"Burbank",
        "iata":"BUR",
        "latitude":34.2006988525,
        "region":"US Domestic",
        "longitude":-118.3590011597
    },
    {
        "name":"Detroit Metropolitan Wayne County Airport",
        "city":"Detroit",
        "iata":"DTW",
        "latitude":42.2123985291,
        "region":"US Domestic",
        "longitude":-83.3534011841
    },
    {
        "name":"Tampa International Airport",
        "city":"Tampa",
        "iata":"TPA",
        "latitude":27.9755001068,
        "region":"US Domestic",
        "longitude":-82.533203125
    },
    {
        "name":"Stewart International Airport",
        "city":"Newburgh",
        "iata":"SWF",
        "latitude":41.5041007996,
        "region":"US Domestic",
        "longitude":-74.1047973633
    },
    {
        "name":"Dallas Fort Worth International Airport",
        "city":"Dallas-Fort Worth",
        "iata":"DFW",
        "latitude":32.8968009949,
        "region":"US Domestic",
        "longitude":-97.0380020142
    },
    {
        "name":"Austin Bergstrom International Airport",
        "city":"Austin",
        "iata":"AUS",
        "latitude":30.1944999695,
        "region":"US Domestic",
        "longitude":-97.6698989868
    },
    {
        "name":"Rickenbacker International Airport",
        "city":"Columbus",
        "iata":"LCK",
        "latitude":39.813801,
        "region":"US Domestic",
        "longitude":-82.927803
    },
    {
        "name":"McGhee Tyson Airport",
        "city":"Knoxville",
        "iata":"TYS",
        "latitude":35.81100082,
        "region":"US Domestic",
        "longitude":-83.9940033
    },
    {
        "name":"Lambert St Louis International Airport",
        "city":"St. Louis",
        "iata":"STL",
        "latitude":38.7486991882,
        "region":"US Domestic",
        "longitude":-90.3700027466
    },
    {
        "name":"Hartsfield Jackson Atlanta International Airport",
        "city":"Atlanta",
        "iata":"ATL",
        "latitude":33.6366996765,
        "region":"US Domestic",
        "longitude":-84.4281005859
    },
    {
        "name":"Nashville International Airport",
        "city":"Nashville",
        "iata":"BNA",
        "latitude":36.1245002747,
        "region":"US Domestic",
        "longitude":-86.6781997681
    },
    {
        "name":"Laredo International Airport",
        "city":"Laredo",
        "iata":"LRD",
        "latitude":27.543800354,
        "region":"US Domestic",
        "longitude":-99.4616012573
    },
    {
        "name":"Tallahassee Regional Airport",
        "city":"Tallahassee",
        "iata":"TLH",
        "latitude":30.3964996338,
        "region":"US Domestic",
        "longitude":-84.3503036499
    },
    {
        "name":"Jacksonville International Airport",
        "city":"Jacksonville",
        "iata":"JAX",
        "latitude":30.4941005707,
        "region":"US Domestic",
        "longitude":-81.6878967285
    },
    {
        "name":"Durango La Plata County Airport",
        "city":"Durango",
        "iata":"DRO",
        "latitude":37.1515007019,
        "region":"US Domestic",
        "longitude":-107.753997803
    },
    {
        "name":"Washington Dulles International Airport",
        "city":"Washington",
        "iata":"IAD",
        "latitude":38.94449997,
        "region":"US Domestic",
        "longitude":-77.45580292
    },
    {
        "name":"General Mitchell International Airport",
        "city":"Milwaukee",
        "iata":"MKE",
        "latitude":42.9472007751,
        "region":"US Domestic",
        "longitude":-87.8965988159
    },
    {
        "name":"Portland International Airport",
        "city":"Portland",
        "iata":"PDX",
        "latitude":45.58869934,
        "region":"US Domestic",
        "longitude":-122.5979996
    },
    {
        "name":"Palm Beach International Airport",
        "city":"West Palm Beach",
        "iata":"PBI",
        "latitude":26.6832008362,
        "region":"US Domestic",
        "longitude":-80.0955963135
    },
    {
        "name":"Honolulu International Airport",
        "city":"Honolulu",
        "iata":"HNL",
        "latitude":21.3187007904,
        "region":"US Domestic",
        "longitude":-157.9219970703
    },
    {
        "name":"Des Moines International Airport",
        "city":"Des Moines",
        "iata":"DSM",
        "latitude":41.5340003967,
        "region":"US Domestic",
        "longitude":-93.6631011963
    },
    {
        "name":"San Diego International Airport",
        "city":"San Diego",
        "iata":"SAN",
        "latitude":32.7336006165,
        "region":"US Domestic",
        "longitude":-117.190002441
    },
    {
        "name":"Ontario International Airport",
        "city":"Ontario",
        "iata":"ONT",
        "latitude":34.0559997559,
        "region":"US Domestic",
        "longitude":-117.6009979248
    },
    {
        "name":"Dothan Regional Airport",
        "city":"Dothan",
        "iata":"DHN",
        "latitude":31.3213005066,
        "region":"US Domestic",
        "longitude":-85.4496002197
    },
    {
        "name":"Syracuse Hancock International Airport",
        "city":"Syracuse",
        "iata":"SYR",
        "latitude":43.1111984253,
        "region":"US Domestic",
        "longitude":-76.106300354
    },
    {
        "name":"Norman Y. Mineta San Jose International Airport",
        "city":"San Jose",
        "iata":"SJC",
        "latitude":37.3625984192,
        "region":"US Domestic",
        "longitude":-121.9290008545
    },
    {
        "name":"Denver International Airport",
        "city":"Denver",
        "iata":"DEN",
        "latitude":39.8616981506,
        "region":"US Domestic",
        "longitude":-104.672996521
    },
    {
        "name":"Philadelphia International Airport",
        "city":"Philadelphia",
        "iata":"PHL",
        "latitude":39.8718986511,
        "region":"US Domestic",
        "longitude":-75.2410964966
    },
    {
        "name":"Ted Stevens Anchorage International Airport",
        "city":"Anchorage",
        "iata":"ANC",
        "latitude":61.1744003296,
        "region":"US Domestic",
        "longitude":-149.9960021973
    },
    {
        "name":"Southwest Florida International Airport",
        "city":"Fort Myers",
        "iata":"RSW",
        "latitude":26.5361995697,
        "region":"US Domestic",
        "longitude":-81.7552032471
    },
    {
        "name":"John F Kennedy International Airport",
        "city":"New York",
        "iata":"JFK",
        "latitude":40.63980103,
        "region":"US Domestic",
        "longitude":-73.77890015
    },
    {
        "name":"Charleston Air Force Base-International Airport",
        "city":"Charleston",
        "iata":"CHS",
        "latitude":32.89860153,
        "region":"US Domestic",
        "longitude":-80.04049683
    },
    {
        "name":"Reno Tahoe International Airport",
        "city":"Reno",
        "iata":"RNO",
        "latitude":39.4990997314,
        "region":"US Domestic",
        "longitude":-119.7679977417
    },
    {
        "name":"Birmingham-Shuttlesworth International Airport",
        "city":"Birmingham",
        "iata":"BHM",
        "latitude":33.56290054,
        "region":"US Domestic",
        "longitude":-86.75350189
    },
    {
        "name":"Sacramento International Airport",
        "city":"Sacramento",
        "iata":"SMF",
        "latitude":38.695400238,
        "region":"US Domestic",
        "longitude":-121.591003418
    },
    {
        "name":"City of Colorado Springs Municipal Airport",
        "city":"Colorado Springs",
        "iata":"COS",
        "latitude":38.8058013916,
        "region":"US Domestic",
        "longitude":-104.7009963989
    },
    {
        "name":"Buffalo Niagara International Airport",
        "city":"Buffalo",
        "iata":"BUF",
        "latitude":42.94049835,
        "region":"US Domestic",
        "longitude":-78.73220062
    },
    {
        "name":"Snohomish County (Paine Field) Airport",
        "city":"Everett",
        "iata":"PAE",
        "latitude":47.90629959,
        "region":"US Domestic",
        "longitude":-122.2819977
    },
    {
        "name":"Bradley International Airport",
        "city":"Windsor Locks",
        "iata":"BDL",
        "latitude":41.9388999939,
        "region":"US Domestic",
        "longitude":-72.6831970215
    },
    {
        "name":"Norfolk Ns (Chambers Fld) Airport",
        "city":"Norfolk",
        "iata":"NGU",
        "latitude":36.93759918,
        "region":"US Domestic",
        "longitude":-76.28929901
    },
    {
        "name":"Chicago O'Hare International Airport",
        "city":"Chicago",
        "iata":"ORD",
        "latitude":41.97859955,
        "region":"US Domestic",
        "longitude":-87.90480042
    },
    {
        "name":"Fairbanks International Airport",
        "city":"Fairbanks",
        "iata":"FAI",
        "latitude":64.81510162,
        "region":"US Domestic",
        "longitude":-147.8560028
    },
    {
        "name":"Baltimore\/Washington International Thurgood Marshall Airport",
        "city":"Baltimore",
        "iata":"BWI",
        "latitude":39.17539978,
        "region":"US Domestic",
        "longitude":-76.66829681
    },
    {
        "name":"Tulsa International Airport",
        "city":"Tulsa",
        "iata":"TUL",
        "latitude":36.1983985901,
        "region":"US Domestic",
        "longitude":-95.8880996704
    },
    {
        "name":"Minneapolis-St Paul International\/Wold-Chamberlain Airport",
        "city":"Minneapolis",
        "iata":"MSP",
        "latitude":44.8819999695,
        "region":"US Domestic",
        "longitude":-93.2218017578
    },
    {
        "name":"Louis Armstrong New Orleans International Airport",
        "city":"New Orleans",
        "iata":"MSY",
        "latitude":29.9934005737,
        "region":"US Domestic",
        "longitude":-90.2580032349
    },
    {
        "name":"Portland International Jetport Airport",
        "city":"Portland",
        "iata":"PWM",
        "latitude":43.64619827,
        "region":"US Domestic",
        "longitude":-70.30930328
    },
    {
        "name":"Albany International Airport",
        "city":"Albany",
        "iata":"ALB",
        "latitude":42.748298645,
        "region":"US Domestic",
        "longitude":-73.8016967773
    },
    {
        "name":"John Wayne Airport-Orange County Airport",
        "city":"Santa Ana",
        "iata":"SNA",
        "latitude":33.67570114,
        "region":"US Domestic",
        "longitude":-117.8679962
    },
    {
        "name":"Casper-Natrona County International Airport",
        "city":"Casper",
        "iata":"CPR",
        "latitude":42.90800095,
        "region":"US Domestic",
        "longitude":-106.4639969
    },
    {
        "name":"Charlotte Douglas International Airport",
        "city":"Charlotte",
        "iata":"CLT",
        "latitude":35.2140007019,
        "region":"US Domestic",
        "longitude":-80.9430999756
    },
    {
        "name":"Orlando International Airport",
        "city":"Orlando",
        "iata":"MCO",
        "latitude":28.4293994904,
        "region":"US Domestic",
        "longitude":-81.3089981079
    },
    {
        "name":"Great Falls International Airport",
        "city":"Great Falls",
        "iata":"GTF",
        "latitude":47.48199844,
        "region":"US Domestic",
        "longitude":-111.3710022
    },
    {
        "name":"Suvarnabhumi Airport",
        "city":"Bangkok",
        "iata":"BKK",
        "latitude":13.6810998917,
        "region":"APAC",
        "longitude":100.7470016479
    },
    {
        "name":"Eleftherios Venizelos International Airport",
        "city":"Athens",
        "iata":"ATH",
        "latitude":37.9364013672,
        "region":"EMEA",
        "longitude":23.9444999695
    },
    {
        "name":"Kaunas International Airport",
        "city":"Kaunas",
        "iata":"KUN",
        "latitude":54.9639015198,
        "region":"EMEA",
        "longitude":24.0848007202
    },
    {
        "name":"Kansai International Airport",
        "city":"Osaka",
        "iata":"KIX",
        "latitude":34.4272994995,
        "region":"APAC",
        "longitude":135.2440032959
    },
    {
        "name":"Piedmont Triad International Airport",
        "city":"Greensboro",
        "iata":"GSO",
        "latitude":36.0978012085,
        "region":"US Domestic",
        "longitude":-79.9373016357
    },
    {
        "name":"Joe Foss Field Airport",
        "city":"Sioux Falls",
        "iata":"FSD",
        "latitude":43.5820007324,
        "region":"US Domestic",
        "longitude":-96.741897583
    },
    {
        "name":"Louisville International Standiford Field",
        "city":"Louisville",
        "iata":"SDF",
        "latitude":38.1744,
        "region":"US Domestic",
        "longitude":-85.736
    },
    {
        "name":"Roanoke\u2013Blacksburg Regional Airport",
        "city":"Roanoke VA",
        "iata":"ROA",
        "latitude":37.3255004883,
        "region":"US Domestic",
        "longitude":-79.975402832
    },
    {
        "name":"Albuquerque International Sunport Airport",
        "city":"Albuquerque",
        "iata":"ABQ",
        "latitude":35.0401992798,
        "region":"US Domestic",
        "longitude":-106.6090011597
    },
    {
        "name":"Billings Logan International Airport",
        "city":"Billings",
        "iata":"BIL",
        "latitude":45.8077011108,
        "region":"US Domestic",
        "longitude":-108.5429992676
    },
    {
        "name":"Greenville Spartanburg International Airport",
        "city":"Greenville",
        "iata":"GSP",
        "latitude":34.8956985474,
        "region":"US Domestic",
        "longitude":-82.2189025879
    },
    {
        "name":"Central Illinois Regional Airport at Bloomington-Normal",
        "city":"Bloomington",
        "iata":"BMI",
        "latitude":40.47710037,
        "region":"US Domestic",
        "longitude":-88.91590118
    },
    {
        "name":"Fort Wayne International Airport",
        "city":"Fort Wayne",
        "iata":"FWA",
        "latitude":40.97850037,
        "region":"US Domestic",
        "longitude":-85.19509888
    },
    {
        "name":"The Eastern Iowa Airport",
        "city":"Cedar Rapids",
        "iata":"CID",
        "latitude":41.8847007751,
        "region":"US Domestic",
        "longitude":-91.7108001709
    },
    {
        "name":"Appleton International Airport",
        "city":"Appleton",
        "iata":"ATW",
        "latitude":44.2580986023,
        "region":"US Domestic",
        "longitude":-88.5190963745
    },
    {
        "name":"Rochester International Airport",
        "city":"Rochester",
        "iata":"RST",
        "latitude":43.9082984924,
        "region":"US Domestic",
        "longitude":-92.5
    },
    {
        "name":"Grand Junction Regional Airport",
        "city":"Grand Junction",
        "iata":"GJT",
        "latitude":39.1223983765,
        "region":"US Domestic",
        "longitude":-108.527000427
    },
    {
        "name":"Bishop International Airport",
        "city":"Flint",
        "iata":"FNT",
        "latitude":42.9654006958,
        "region":"US Domestic",
        "longitude":-83.743598938
    },
    {
        "name":"Clark International Airport",
        "city":"Angeles City",
        "iata":"CRK",
        "latitude":15.1859998703,
        "region":"APAC",
        "longitude":120.559997559
    },
    {
        "name":"Hector International Airport",
        "city":"Fargo",
        "iata":"FAR",
        "latitude":46.9207000732,
        "region":"US Domestic",
        "longitude":-96.8158035278
    },
    {
        "name":"Springfield Branson National Airport",
        "city":"Springfield",
        "iata":"SGF",
        "latitude":37.24570084,
        "region":"US Domestic",
        "longitude":-93.38860321
    },
    {
        "name":"Lehigh Valley International Airport",
        "city":"Allentown",
        "iata":"ABE",
        "latitude":40.6520996094,
        "region":"US Domestic",
        "longitude":-75.4408035278
    },
    {
        "name":"South Bend Regional Airport",
        "city":"South Bend",
        "iata":"SBN",
        "latitude":41.7086982727,
        "region":"US Domestic",
        "longitude":-86.3172988892
    },
    {
        "name":"Arcata Airport",
        "city":"Arcata CA",
        "iata":"ACV",
        "latitude":40.978099823,
        "region":"US Domestic",
        "longitude":-124.1090011597
    },
    {
        "name":"Tri-State\/Milton J. Ferguson Field",
        "city":"Huntington",
        "iata":"HTS",
        "latitude":38.36669922,
        "region":"US Domestic",
        "longitude":-82.55799866
    },
    {
        "name":"San Bernardino International Airport",
        "city":"San Bernardino",
        "iata":"SBD",
        "latitude":34.0954017639,
        "region":"US Domestic",
        "longitude":-117.23500061
    },
    {
        "name":"Fort Worth Alliance Airport",
        "city":"Fort Worth",
        "iata":"AFW",
        "latitude":32.9875984192,
        "region":"US Domestic",
        "longitude":-97.3188018799
    }
]
